City_ID,City,Lat,Lng,Max Temp,Humidity,Cloudiness,Wind Speed,Country,Date
0,isetskoye,56.4858,65.3226,7.68,69,94,4.61,RU,1715033761
1,nueve de julio,-35.4444,-60.8831,12.76,99,99,3.58,AR,1715033637
2,barcs,45.96,17.4586,15.76,65,90,6.35,HU,1715033766
3,ust-nera,64.5667,143.2,1.94,86,39,2.38,RU,1715033563
4,hammerfest,70.6634,23.6821,-1.75,93,75,2.57,NO,1715033557
5,adamstown,-25.066,-130.1015,21.94,78,47,8.12,PN,1715033555
6,kokstad,-30.5472,29.4241,13.76,40,0,2.17,ZA,1715033565
7,puerto natales,-51.7236,-72.4875,-0.9,90,18,1.27,CL,1715033553
8,thal,35.4791,72.2439,6.36,51,0,3.71,PK,1715033778
9,khandyga,62.6667,135.6,3.68,89,31,2.23,RU,1715033540
10,ponta delgada,37.7333,-25.6667,19.4,88,75,7.2,PT,1715033783
11,port-aux-francais,-49.35,70.2167,6.37,98,100,12.75,TF,1715033553
12,yaren,-0.5472,166.916,29.15,75,98,7.16,NR,1715033564
13,waitangi,-43.9535,-176.5597,11.57,86,88,2.68,NZ,1715033558
14,toliara,-23.35,43.6667,20.99,63,0,2.77,MG,1715033599
15,kill devil hills,36.0307,-75.676,25.0,84,75,7.72,US,1715033575
16,ibiza,38.9088,1.433,19.01,79,0,3.13,ES,1715033795
17,chhor,25.5167,69.7667,30.68,42,0,5.28,PK,1715033797
18,olonkinbyen,70.9221,-8.7187,0.4,96,100,7.39,SJ,1715033569
19,grytviken,-54.2811,-36.5092,0.45,80,76,4.26,GS,1715033555
20,puerto ayora,-0.7393,-90.3518,25.98,95,39,2.24,EC,1715033578
21,fengkou,30.0833,113.2667,19.94,87,98,2.42,CN,1715033806
22,constantia,44.1833,28.65,10.39,77,67,7.32,RO,1715033558
23,whitehorse,60.7161,-135.0538,7.23,77,100,2.68,CA,1715033579
24,yellowknife,62.456,-114.3525,16.98,50,19,5.81,CA,1715033556
25,ilulissat,69.2167,-51.1,-4.99,68,75,4.63,GL,1715033561
26,zinjibar,13.1287,45.3807,29.59,76,58,3.24,YE,1715033816
27,pandan,14.0453,124.1694,26.64,86,44,1.74,PH,1715033818
28,udachny,66.4167,112.4,-0.31,98,97,8.09,RU,1715033559
29,bilibino,68.0546,166.4372,-3.56,93,84,1.02,RU,1715033559
30,fort-shevchenko,44.5086,50.263,13.46,51,100,4.38,KZ,1715033825
31,praia da vitoria,38.7333,-27.0667,19.14,94,75,12.03,PT,1715033576
32,kodiak,57.79,-152.4072,7.73,76,100,4.63,US,1715033585
33,stanley,54.868,-1.6985,10.01,93,100,2.06,GB,1715033571
34,port saint john's,-31.6229,29.5448,23.22,47,0,3.05,ZA,1715033590
35,guerrero negro,27.9769,-114.0611,18.81,55,28,8.65,MX,1715033592
36,ushuaia,-54.8,-68.3,-2.51,97,93,0.61,AR,1715033486
37,sinop,41.7711,34.8709,5.33,70,0,3.36,TR,1715033580
38,punta arenas,-53.15,-70.9167,3.06,87,75,1.03,CL,1715033299
39,deyang,31.1302,104.382,19.12,72,92,1.07,CN,1715033844
40,west island,-12.1568,96.8225,26.99,83,40,5.14,CC,1715033557
41,anadyr,64.75,177.4833,-4.72,93,0,2.0,RU,1715033572
42,iskateley,67.6803,53.1512,-10.55,91,84,4.02,RU,1715033555
43,blackmans bay,-43.0167,147.3167,7.51,91,9,0.45,AU,1715033553
44,saint croix,17.7397,-64.7388,26.64,85,76,1.34,VI,1715033854
45,ribeira grande,38.5167,-28.7,18.22,88,40,8.23,PT,1715033564
46,hawaiian paradise park,19.5933,-154.9731,24.93,89,100,3.6,US,1715033557
47,thompson,55.7435,-97.8558,17.29,35,50,4.47,CA,1715033560
48,sarangani,5.4033,125.4636,28.19,78,87,5.55,PH,1715033576
49,lerwick,60.1545,-1.1494,9.0,95,94,1.44,GB,1715033755
50,severo-yeniseyskiy,60.3725,93.0408,-0.24,88,88,4.92,RU,1715033867
51,vila franca do campo,37.7167,-25.4333,19.23,99,100,8.87,PT,1715033586
52,yulinshi,38.2906,109.7494,15.4,24,0,3.61,CN,1715033871
53,roma,43.2128,-75.4557,20.08,32,0,5.14,US,1715033578
54,utrik,11.2278,169.8474,27.22,83,93,9.26,MH,1715033557
55,stanthorpe,-28.6667,151.95,13.01,96,94,8.5,AU,1715033877
56,albany,42.6001,-73.9662,22.36,63,100,0.45,US,1715033560
57,aral,40.5156,81.2636,21.65,67,81,3.01,CN,1715033881
58,vorkuta,67.5,64.0,-18.27,100,89,1.34,RU,1715033353
59,alofi,-19.0595,-169.9187,27.94,89,75,3.09,NU,1715033606
60,aykhal,66.0,111.5,-0.12,96,97,8.25,RU,1715033568
61,palm harbor,28.0781,-82.7637,31.61,73,0,3.13,US,1715033777
62,klyuchi,52.2667,79.1667,5.27,56,50,3.12,RU,1715033588
63,moyynkum,44.2914,72.9469,15.8,64,35,3.9,KZ,1715033896
64,belyy yar,53.6039,91.3903,4.94,87,0,2.0,RU,1715033588
65,fisterra,42.9049,-9.2629,12.08,86,7,4.21,ES,1715033766
66,high rock,26.6208,-78.2833,27.01,68,1,5.15,BS,1715033902
67,lazaro cardenas,17.9583,-102.2,28.92,52,92,4.68,MX,1715033481
68,longyearbyen,78.2186,15.6401,-3.09,74,40,1.03,SJ,1715033563
69,nong kung si,16.65,103.3,25.87,78,30,1.65,TH,1715033909
70,kaliua,-5.0606,31.7936,18.75,93,13,1.95,TZ,1715033911
71,ancud,-41.8697,-73.8203,6.19,94,96,1.79,CL,1715033596
72,horta,38.5333,-28.6333,17.8,92,40,8.23,PT,1715033655
73,la passe,45.5549,-0.8967,13.32,86,44,7.29,FR,1715033585
74,tinajo,29.0788,-13.7081,19.49,77,20,6.69,ES,1715033919
75,kudahuvadhoo,2.6708,72.8944,29.31,77,82,4.3,MV,1715033562
76,mangrol,21.1167,70.1167,27.3,86,0,5.45,IN,1715033756
77,lorengau,-2.0226,147.2712,28.43,79,100,2.14,PG,1715033790
78,cill airne,52.05,-9.5167,11.24,97,100,1.68,IE,1715033756
79,nar'yan-mar,67.6713,53.087,-10.5,91,87,4.02,RU,1715033598
80,rabigh,22.7986,39.0349,27.83,49,0,5.34,SA,1715033932
81,taltal,-25.4,-70.4833,15.52,85,71,1.07,CL,1715033837
82,arraial do cabo,-22.9661,-42.0278,24.88,81,1,10.13,BR,1715033763
83,coron,11.9986,120.2043,26.73,83,50,1.75,PH,1715033898
84,arteche,12.2645,125.4048,26.46,87,100,2.08,PH,1715033577
85,qaqortoq,60.7167,-46.0333,-0.59,68,1,2.01,GL,1715033557
86,kingston,17.997,-76.7936,30.65,71,15,1.6,JM,1715033557
87,chonchi,-42.6128,-73.8092,5.07,98,100,1.55,CL,1715033561
88,avarua,-21.2078,-159.775,28.03,89,75,5.66,CK,1715033584
89,tarui,35.3667,136.5333,19.65,100,100,3.9,JP,1715033951
90,edinburgh of the seven seas,-37.0676,-12.3116,13.88,68,65,8.38,SH,1715033556
91,antalaha,-14.9003,50.2788,22.25,90,78,3.37,MG,1715033837
92,port mathurin,-19.6833,63.4167,25.83,72,70,10.81,MU,1715033566
93,coquimbo,-29.9533,-71.3436,14.4,73,0,2.38,CL,1715033262
94,taybad,34.74,60.7756,24.37,28,81,1.78,IR,1715033961
95,saint-philippe,-21.3585,55.7679,21.77,83,46,6.11,RE,1715033783
96,san pedro de ycuamandiyu,-24.0917,-57.0764,32.05,32,11,2.7,PY,1715033966
97,ta`u,-14.2336,-169.5144,28.58,83,100,4.82,AS,1715033602
98,mili,6.0815,171.735,28.25,82,92,8.74,MH,1715033970
99,kaa-khem,51.6833,94.7333,14.67,71,100,2.68,RU,1715033857
100,vadso,70.0744,29.7487,-2.51,86,75,5.14,NO,1715033589
101,puerto baquerizo moreno,-0.9,-89.6,28.55,65,20,4.12,EC,1715033564
102,nogliki,51.8333,143.1667,-2.03,94,100,2.68,RU,1715033978
103,lihue,21.9789,-159.3672,27.58,68,20,7.72,US,1715033406
104,usogorsk,63.4106,48.6872,-1.3,58,96,1.22,RU,1715033600
105,kerikeri,-35.2268,173.9474,16.62,93,13,2.68,NZ,1715033567
106,pickering,43.9001,-79.1329,18.62,51,100,3.04,CA,1715033909
107,college,64.8569,-147.8028,1.36,89,100,3.6,US,1715033563
108,lebu,-37.6167,-73.65,11.43,91,100,10.73,CL,1715033575
109,petropavlovsk-kamchatsky,53.0452,158.6483,2.33,78,100,4.0,RU,1715033563
110,deniliquin,-35.5333,144.9667,10.74,74,0,2.07,AU,1715033995
111,mayo-belwa,9.05,12.05,28.39,54,92,0.61,NG,1715033997
112,zeya,53.75,127.2667,8.05,51,9,1.22,RU,1715033881
113,da lat,11.9465,108.4419,15.45,79,29,1.36,VN,1715034001
114,lethem,3.3803,-59.7968,25.77,86,94,2.07,GY,1715033591
115,tolanaro,-25.0319,46.9987,22.22,80,4,5.73,MG,1715033603
116,bredasdorp,-34.5322,20.0403,15.1,68,0,1.44,ZA,1715033553
117,shemgang,27.2169,90.6579,14.26,93,100,1.67,BT,1715034010
118,ar rutbah,33.0381,40.2848,15.37,61,27,5.87,IQ,1715034012
119,santa helena de goias,-17.8136,-50.5969,25.75,50,26,0.5,BR,1715034014
120,christchurch,-43.5333,172.6333,10.23,86,91,2.06,NZ,1715034016
121,redding,40.5865,-122.3917,19.87,48,100,6.17,US,1715034001
122,iqaluit,63.7506,-68.5145,-1.28,68,7,4.02,CA,1715033554
123,nova sintra,14.8667,-24.7167,23.33,78,5,6.67,CV,1715033565
124,orange,33.7,-117.7675,27.91,51,20,4.63,US,1715034025
125,kaoma,-14.7833,24.8,22.23,54,100,2.13,ZM,1715034027
126,camocim,-2.9022,-40.8411,26.73,82,100,3.78,BR,1715034029
127,papatowai,-46.5619,169.4708,9.57,74,72,5.92,NZ,1715033559
128,chibougamau,49.9168,-74.3659,8.79,71,75,5.66,CA,1715033575
129,huarmey,-10.0681,-78.1522,21.77,77,32,4.55,PE,1715033868
130,hengshui,37.7322,115.7011,16.66,68,83,2.7,CN,1715034037
131,pisco,-13.7,-76.2167,22.04,73,85,3.67,PE,1715033567
132,shanhecun,44.7,127.2,9.01,50,100,4.39,CN,1715034044
133,kununurra,-15.7667,128.7333,17.99,82,83,0.0,AU,1715033488
134,fort bragg,35.139,-79.006,25.08,83,100,3.6,US,1715033564
135,verkhnevilyuysk,63.4453,120.3167,5.47,99,100,5.82,RU,1715034050
136,tiksi,71.6872,128.8694,-1.68,89,84,2.01,RU,1715033562
137,kristiansund,63.1115,7.732,9.03,93,100,4.63,NO,1715033360
138,paoua,7.2427,16.4406,26.34,27,7,0.99,CF,1715033577
139,oriximina,-1.7656,-55.8661,25.97,93,52,1.57,BR,1715034058
140,atafu village,-8.5421,-172.5159,29.88,75,47,4.82,TK,1715033582
141,dolores,-36.3132,-57.6792,14.72,94,100,4.9,AR,1715033525
142,atmakur,15.8833,78.5833,30.81,57,45,2.0,IN,1715034065
143,iron mountain,45.8202,-88.066,20.9,32,0,5.14,US,1715033860
144,margaret river,-33.95,115.0667,12.23,90,9,3.5,AU,1715033556
145,choma,-16.8065,26.9531,18.14,56,0,1.87,ZM,1715034071
146,port shepstone,-30.7414,30.455,22.26,47,0,3.02,ZA,1715034073
147,saipan,15.1355,145.701,29.39,70,20,3.6,MP,1715033583
148,ola,59.5833,151.2833,0.08,88,85,0.73,RU,1715034078
149,adre,13.4667,22.2,27.89,12,0,3.96,TD,1715033838
150,abnub,27.2696,31.1511,21.12,30,0,1.54,EG,1715034082
151,zwedru,6.0667,-8.1281,23.96,98,96,1.4,LR,1715034084
152,nuuk,64.1835,-51.7216,-1.66,59,0,7.2,GL,1715033788
153,alice springs,-23.7,133.8833,8.75,81,94,3.6,AU,1715033450
154,kyelang,32.5833,77.0333,-6.84,77,12,3.56,IN,1715034090
155,berbera,10.4396,45.0143,30.34,74,99,2.59,SO,1715034093
156,george town,5.4112,100.3354,26.64,94,20,1.03,MY,1715033472
157,charters towers,-20.1,146.2667,20.78,80,84,4.14,AU,1715033594
158,sambava,-14.2667,50.1667,22.96,88,99,4.67,MG,1715034099
159,vila velha,-20.3297,-40.2925,25.97,78,0,1.54,BR,1715033746
160,walvis bay,-22.9575,14.5053,14.49,77,0,1.42,NA,1715033757
161,swift current,50.2834,-107.8014,10.45,93,100,6.69,CA,1715034109
162,el galpon,-25.3807,-64.6526,21.83,89,7,2.29,AR,1715034111
163,laguna,38.421,-121.4238,23.08,36,0,3.6,US,1715033590
164,hobyo,5.3505,48.5268,29.24,77,100,5.74,SO,1715033751
165,cabedelo,-6.9811,-34.8339,27.37,86,100,4.69,BR,1715033987
166,talnakh,69.4865,88.3972,-14.33,100,99,2.66,RU,1715033572
167,hermanus,-34.4187,19.2345,14.89,74,26,2.86,ZA,1715033561
168,sikonge,-5.6333,32.7667,18.3,91,33,1.91,TZ,1715033764
169,luderitz,-26.6481,15.1594,15.35,71,0,3.42,NA,1715033575
170,pasni,25.2631,63.471,28.09,63,0,3.98,PK,1715034130
171,ivdel',60.6911,60.4206,3.44,46,100,3.13,RU,1715033569
172,aasiaat,68.7098,-52.8699,-8.82,84,91,2.57,GL,1715033568
173,akobo,7.4344,3.9497,24.57,92,100,1.84,NG,1715034137
174,port lincoln,-34.7333,135.8667,14.36,87,0,3.05,AU,1715033586
175,vilyuysk,63.7553,121.6247,2.78,85,100,4.47,RU,1715034141
176,canela,-29.3656,-50.8156,17.54,87,2,2.2,BR,1715034005
177,port alfred,-33.5906,26.891,19.39,86,0,1.64,ZA,1715033574
178,hamilton,39.1834,-84.5333,22.43,89,100,2.06,US,1715033640
179,zhangatas,43.5667,69.75,17.72,66,96,3.24,KZ,1715034149
180,codrington,-38.2667,141.9667,8.82,95,4,2.13,AU,1715034152
181,haiku-pauwela,20.9219,-156.3051,27.34,78,40,11.83,US,1715034154
182,qaisumah,28.3112,46.1273,25.98,24,0,4.12,SA,1715034156
183,georgetown,5.4112,100.3354,26.64,91,40,1.54,MY,1715034158
184,tofol,5.3248,163.0078,30.88,70,75,5.14,FM,1715034160
185,uturoa,-16.7333,-151.4333,27.76,80,55,9.39,PF,1715034162
186,carutapera,-1.195,-46.02,25.34,95,100,2.06,BR,1715034164
187,palmer,42.1584,-72.3287,22.78,56,75,5.14,US,1715034166
188,nabire,-3.3667,135.4833,25.78,91,98,1.08,ID,1715034168
189,jaumave,23.4167,-99.3833,38.82,21,100,1.76,MX,1715034171
190,kuanda,56.3161,116.0806,12.21,53,100,1.42,RU,1715034173
191,zhuanghe,39.7008,122.9911,13.24,82,100,2.49,CN,1715034175
192,guanica,17.9716,-66.908,26.69,88,42,3.73,PR,1715034177
193,baruun-urt,46.6806,113.2792,11.6,29,5,1.16,MN,1715034179
194,tumayr,25.7039,45.868,26.89,20,0,3.69,SA,1715034181
195,kayangel,8.0823,134.7173,28.22,72,100,4.42,PW,1715034183
196,kimbe,-5.5502,150.1429,25.34,95,100,2.09,PG,1715034185
197,lala,7.9745,123.7458,24.36,88,83,0.68,PH,1715034187
198,ryotsu-minato,38.0833,138.4333,15.25,90,100,2.26,JP,1715034190
199,ubinskoye,55.3068,79.6802,2.96,54,5,3.48,RU,1715034192
200,trabzon,40.9167,39.8333,9.05,82,75,3.6,TR,1715034068
201,ust'-kut,56.7938,105.7672,6.35,75,99,4.47,RU,1715034196
202,kuala terengganu,5.3302,103.1408,26.97,94,20,1.54,MY,1715034198
203,bikenibeu village,1.3673,173.1241,28.94,75,7,5.9,KI,1715034200
204,polyarnyy,69.1989,33.4478,-4.14,67,100,6.25,RU,1715034202
205,ribeira brava,32.65,-17.0667,20.4,82,100,2.65,PT,1715034204
206,bethel,41.3712,-73.414,23.05,64,100,3.09,US,1715033915
207,mahina,-17.5065,-149.489,29.87,74,40,5.14,PF,1715034209
208,torghay,49.6339,63.4981,10.51,84,100,1.49,KZ,1715034211
209,champerico,14.3,-91.9167,31.3,69,8,4.81,GT,1715034213
210,hauterive,46.0901,3.4459,11.42,87,59,2.78,FR,1715034215
211,dudinka,69.4058,86.1778,-14.1,100,98,2.13,RU,1715034217
212,barcelos,41.5388,-8.6151,14.36,93,0,1.99,PT,1715033957
213,fuyuan,46.4333,127.0833,10.87,39,10,3.84,CN,1715034224
214,remire-montjoly,4.9167,-52.2667,28.02,89,40,4.12,GF,1715034226
215,rotonda west,26.8837,-82.2901,31.7,77,0,3.6,US,1715034228
216,hithadhoo,-0.6,73.0833,29.33,73,99,3.41,MV,1715034227
217,abepura,-2.6333,140.5833,26.45,89,20,1.03,ID,1715034232
218,manismata,-2.4667,111.0333,23.32,99,23,1.17,ID,1715034234
219,irymple,-34.25,142.1667,9.49,88,0,4.06,AU,1715034236
220,sulak,43.2734,47.5146,12.29,85,84,0.19,RU,1715034238
221,san patricio,28.017,-97.5169,29.92,65,40,7.04,US,1715034240
222,kirkwood,38.5834,-90.4068,26.03,69,75,3.6,US,1715034243
223,hasaki,35.7333,140.8333,19.22,81,100,11.29,JP,1715034213
224,las heras,-46.5419,-68.9359,2.15,42,100,5.75,AR,1715034022
225,istaravshan,39.9142,69.0033,17.31,47,34,2.33,TJ,1715034249
226,puerto aysen,-45.4,-72.7,1.26,98,99,2.19,CL,1715034240
227,itoman,26.1247,127.6694,25.21,94,40,6.17,JP,1715034222
228,kitimat,54.0524,-128.6534,13.21,71,100,4.47,CA,1715034255
229,pokhara,28.2333,83.9833,17.53,62,60,1.06,NP,1715034257
230,villa gesell,-37.2639,-56.973,15.59,88,100,7.06,AR,1715034206
231,beyneu,45.3167,55.2,12.93,77,95,5.14,KZ,1715034261
232,ataq,14.5377,46.8319,23.79,71,77,5.2,YE,1715034264
233,yigo village,13.5361,144.8886,28.19,75,20,4.63,GU,1715034266
234,sitka,57.0531,-135.33,6.08,89,97,2.8,US,1715034218
235,lagos,6.5833,3.75,27.18,85,100,1.76,NG,1715034108
236,saryozek,44.3583,77.9753,11.71,83,100,1.19,KZ,1715034272
237,selfoss,63.9331,-20.9971,3.91,73,100,8.27,IS,1715034255
238,coahuayana de hidalgo,18.7,-103.6583,30.83,42,100,3.02,MX,1715034276
239,howard springs,-12.497,131.047,22.95,85,88,2.56,AU,1715034280
240,anaconda,46.1285,-112.9423,9.55,50,97,7.24,US,1715034283
241,invercargill,-46.4,168.35,8.34,94,96,3.13,NZ,1715034221
242,ghat,24.9647,10.1728,26.17,37,62,2.01,LY,1715034287
243,susuman,62.7833,148.1667,-2.79,86,25,0.45,RU,1715034289
244,imbituba,-28.24,-48.6703,25.48,83,0,4.68,BR,1715034291
245,kuraymah,18.55,31.85,28.21,17,0,6.49,SD,1715034293
246,kolonia,50.9333,6.95,13.87,93,75,2.57,DE,1715033999
247,konarka,19.9,86.1167,26.2,83,43,8.21,IN,1715034297
248,al mijlad,11.0333,27.7333,31.14,9,2,4.91,SD,1715034299
249,isafjordur,66.0755,-23.124,2.76,74,100,3.91,IS,1715034207
250,saint-joseph,-21.3667,55.6167,22.21,80,24,6.29,RE,1715034304
251,bedesa,8.9,40.7833,18.21,71,36,0.58,ET,1715034306
252,aktau,43.65,51.2,11.32,57,100,6.72,KZ,1715034308
253,sola,-13.8833,167.55,26.93,78,97,10.73,VU,1715034310
254,bocana de paiwas,12.7857,-85.1227,36.77,30,99,5.15,NI,1715034312
255,miyako,39.6367,141.9525,15.87,85,100,2.46,JP,1715034314
256,kermanshah,34.3142,47.065,9.33,91,100,3.9,IR,1715034317
257,lubang,13.8584,120.124,28.56,76,12,6.31,PH,1715034319
258,fort st. john,56.2499,-120.8529,14.94,31,75,6.69,CA,1715034321
259,ibshaway,29.358,30.6814,18.61,55,10,5.48,EG,1715034323
260,pangody,65.85,74.4859,-15.31,98,26,2.65,RU,1715034211
261,harstad,68.799,16.5293,1.56,89,52,7.6,NO,1715034235
262,colonia,50.9333,6.95,13.87,93,75,2.57,DE,1715034086
263,luwingu,-10.2621,29.9271,16.39,96,19,2.06,ZM,1715034331
264,badger,64.8,-147.5333,1.31,90,100,3.6,US,1715034333
265,saint-mandrier-sur-mer,43.078,5.929,15.85,85,0,0.0,FR,1715034336
266,margate,51.3813,1.3862,11.84,94,71,2.22,GB,1715034338
267,thunder bay,48.4001,-89.3168,16.95,36,100,5.14,CA,1715034340
268,robertsport,6.7533,-11.3686,28.06,80,99,2.26,LR,1715034342
269,el calafate,-50.3408,-72.2768,-2.33,69,13,1.14,AR,1715034284
270,mount gambier,-37.8333,140.7667,8.11,96,12,1.92,AU,1715034346
271,mek'ele,13.4967,39.4753,18.16,73,1,3.02,ET,1715034348
272,kastal,36.246,36.2451,16.67,45,40,7.72,TR,1715034350
273,eureka,40.8021,-124.1637,15.67,88,93,1.79,US,1715034122
274,nova vicosa,-17.8919,-39.3719,25.36,83,1,4.2,BR,1715034355
275,vrangel',42.7297,133.0839,5.52,96,100,4.37,RU,1715034357
276,veinticinco de mayo,-35.4323,-60.1727,13.32,99,100,1.79,AR,1715034359
277,strehaia,44.6167,23.2,14.2,73,78,0.3,RO,1715034361
278,port elizabeth,-33.918,25.5701,16.84,97,40,1.54,ZA,1715034223
279,bamusso,4.4591,8.9027,28.01,86,97,2.85,CM,1715034365
280,nadi,-17.8,177.4167,29.0,70,75,3.6,FJ,1715034367
281,sao paulo de olivenca,-3.3783,-68.8725,25.85,98,100,1.08,BR,1715034369
282,mahibadhoo,3.7833,72.9667,29.1,79,100,4.42,MV,1715034371
283,bamboo flat,11.7,92.7167,28.34,77,41,0.99,IN,1715034249
284,mossel bay,-34.1831,22.146,16.09,74,0,2.55,ZA,1715033790
285,sirjan,29.452,55.6814,18.79,35,11,1.31,IR,1715034378
286,gerash,27.6652,54.1371,24.99,35,30,2.65,IR,1715034380
287,hirtshals,57.5881,9.9592,9.64,82,99,5.13,DK,1715034382
288,brisas de zicatela,15.8369,-97.0419,30.29,74,20,3.09,MX,1715034384
289,vorgashor,67.5833,63.95,-18.44,100,80,2.93,RU,1715034235
290,paramonga,-10.6667,-77.8333,20.72,81,39,4.23,PE,1715034390
291,faya-largeau,17.9257,19.1043,32.31,15,0,6.96,TD,1715034393
292,soe,-9.8607,124.284,18.61,97,31,1.75,ID,1715034395
293,ketchikan,55.3422,-131.6461,10.19,81,75,8.23,US,1715034397
294,bubaque,11.2833,-15.8333,26.23,75,13,8.02,GW,1715034399
295,cam ranh,11.9214,109.1591,25.98,94,20,1.54,VN,1715034401
296,lefka,35.1106,32.8506,15.96,65,0,2.36,CY,1715034403
297,juan griego,11.0817,-63.9655,27.95,77,97,6.15,VE,1715034405
298,jamestown,42.097,-79.2353,20.85,36,0,4.63,US,1715034407
299,sao tome,0.3365,6.7273,27.86,82,88,4.71,ST,1715034409
300,weno,7.4515,151.8468,29.97,84,100,3.09,FM,1715034235
301,kangding,30.0513,101.9603,9.61,99,100,1.27,CN,1715034414
302,baki,-7.6128,110.7839,22.08,91,2,2.33,ID,1715034416
303,akrehamn,59.2667,5.1833,10.14,87,100,2.06,NO,1715034418
304,acajutla,13.5928,-89.8275,30.28,67,27,3.45,SV,1715034420
305,newman,37.3138,-121.0208,22.35,39,31,0.89,US,1715034216
306,rabaul,-4.1967,152.1721,27.82,78,100,1.04,PG,1715034226
307,nili,33.7218,66.1302,13.07,36,0,2.28,AF,1715034427
308,baracatan,6.9675,125.4158,23.31,85,96,2.47,PH,1715034429
309,williams lake,52.1415,-122.1445,15.03,43,75,4.12,CA,1715034431
310,melekeok village,7.4957,134.6367,27.31,83,75,1.54,PW,1715034433
311,crane,31.3974,-102.3501,33.03,9,2,9.36,US,1715034219
312,pochep,52.9336,33.4464,12.43,94,87,5.21,RU,1715034437
313,olyokminsk,60.3736,120.4264,6.94,85,100,3.3,RU,1715034439
314,lusambo,-4.9667,23.45,22.88,65,30,0.44,CD,1715034442
315,okhotsk,59.3833,143.3,1.98,88,76,2.08,RU,1715034212
316,qamdo,31.1667,97.2333,2.34,76,39,1.99,CN,1715034446
317,melioratorov,57.2107,65.6077,10.21,50,0,4.0,RU,1715034448
318,wailua homesteads,22.0669,-159.378,27.24,75,20,7.72,US,1715034450
319,niafunke,15.9322,-3.9906,33.98,10,91,2.44,ML,1715034452
320,nouadhibou,20.931,-17.0347,18.99,82,86,6.69,MR,1715034454
321,umm kaddadah,13.6017,26.6876,28.73,14,0,5.98,SD,1715034456
322,hadibu,12.65,54.0333,29.39,75,71,2.56,YE,1715034458
323,biltine,14.5333,20.9167,31.35,12,0,2.83,TD,1715034461
324,krasnyy chikoy,50.3643,108.7512,9.35,60,28,1.42,RU,1715034258
325,murudeshwara,14.0943,74.4845,29.29,71,78,3.3,IN,1715034465
326,podporozh'ye,60.9112,34.1706,-1.61,84,79,0.51,RU,1715034467
327,san andres,12.5847,-81.7006,30.01,79,20,5.66,CO,1715034469
328,acapulco de juarez,16.8634,-99.8901,29.9,70,0,4.63,MX,1715034471
329,carnarvon,-24.8667,113.6333,19.38,59,0,7.48,AU,1715034473
330,babayevo,59.3936,35.9371,-3.23,68,3,2.01,RU,1715034475
331,lages,-27.8161,-50.3261,16.9,85,0,1.29,BR,1715034351
332,al artawiyah,26.5053,45.3444,24.82,18,1,2.87,SA,1715034480
333,penryn,50.1681,-5.1042,12.37,92,100,4.12,GB,1715034482
334,naze,28.3667,129.4833,20.51,86,100,4.6,JP,1715034484
335,tazovsky,67.4667,78.7,-14.33,98,95,4.01,RU,1715034229
336,hwange,-18.3693,26.5019,20.55,55,0,0.55,ZW,1715034488
337,posse,-14.0931,-46.3694,25.77,54,97,1.89,BR,1715034490
338,cadale,2.7603,46.3222,28.18,79,100,7.06,SO,1715034492
339,dabakala,8.3667,-4.4333,23.44,90,100,0.6,CI,1715034494
340,wenchang,30.904,118.4887,18.0,95,99,0.75,CN,1715034496
341,kapoeta,4.7717,33.5903,27.08,61,99,3.99,SS,1715034499
342,afaahiti,-17.75,-149.2833,28.93,85,69,10.89,PF,1715034206
343,pacific grove,36.6177,-121.9166,20.21,66,0,6.17,US,1715034503
344,san francisco,37.7749,-122.4194,21.17,66,40,7.72,US,1715034290
345,pucheng,27.9233,118.5333,17.7,89,100,0.32,CN,1715034507
346,capitao poco,-1.7464,-47.0594,24.75,96,100,2.14,BR,1715034509
347,enewetak,11.3474,162.3373,27.96,77,98,8.64,MH,1715034235
348,peace river,56.2501,-117.286,18.17,39,100,1.54,CA,1715034292
349,auki,-8.7676,160.7034,27.84,87,100,1.7,SB,1715034518
350,black point,-34.6187,137.8972,14.61,69,0,3.41,AU,1715034253
351,kharp,66.8014,65.8081,-19.05,84,24,2.73,RU,1715034522
352,rakops,-21.0167,24.3333,22.01,29,0,1.8,BW,1715034524
353,morehead,37.2711,-87.1764,25.44,73,100,2.06,US,1715034526
354,necochea,-38.5473,-58.7368,11.22,71,0,4.29,AR,1715034388
355,revda,56.801,59.9303,2.44,97,93,4.24,RU,1715034530
356,hola,51.5377,23.1902,13.1,92,100,2.26,PL,1715034532
357,sarandi,-23.4436,-51.8739,25.75,57,0,3.6,BR,1715034276
358,da nang,16.0678,108.2208,26.99,89,40,1.54,VN,1715034537
359,fortuna,40.5982,-124.1573,15.52,87,100,3.09,US,1715034539
360,guiuan,11.0333,125.7247,28.05,75,64,2.31,PH,1715034541
361,billings,45.7833,-108.5007,11.83,62,100,11.83,US,1715034300
362,east london,-33.0153,27.9116,21.84,53,0,0.16,ZA,1715034545
363,macusani,-14.0833,-70.4333,6.8,79,99,0.68,PE,1715034547
364,mawu,29.5923,107.3139,17.54,83,100,0.6,CN,1715034549
365,eyl,7.9803,49.8164,28.3,82,66,2.13,SO,1715034551
366,kokshetau,53.2775,69.3883,9.18,66,100,6.0,KZ,1715034556
367,puerto penasco,31.3167,-113.5333,27.99,47,0,8.75,MX,1715034558
368,le port,-20.9373,55.2919,23.98,72,5,2.56,RE,1715034560
369,ulsteinvik,62.3432,5.8487,10.97,91,9,0.45,NO,1715034562
370,tranqueras,-31.2,-55.75,20.72,98,98,1.97,UY,1715034564
371,port hedland,-20.3167,118.5667,20.03,60,38,1.54,AU,1715034566
372,marion,39.7684,-86.1555,23.67,73,75,4.63,US,1715034480
373,henderson,36.0397,-114.9819,26.1,18,0,3.6,US,1715034570
374,rio grande,-32.035,-52.0986,20.06,96,79,2.11,BR,1715034572
375,baoqing,46.3317,132.2111,7.31,52,6,7.52,CN,1715034575
376,vilyuchinsk,52.9306,158.4028,3.15,84,99,2.26,RU,1715034577
377,bizhbulyak,53.6967,54.2642,2.24,91,9,2.39,RU,1715034579
378,tocopilla,-22.092,-70.1979,19.38,75,64,3.06,CL,1715034516
379,raja,8.4596,25.678,32.05,30,99,0.43,SS,1715034583
380,juneau,58.3019,-134.4197,7.45,81,100,3.09,US,1715034293
381,tura,25.5198,90.2201,20.15,95,99,1.0,IN,1715034587
382,port douglas,-16.4833,145.4667,23.35,85,66,3.53,AU,1715034589
383,lompoc,34.6391,-120.4579,23.72,57,0,7.2,US,1715034591
384,ko pha ngan,9.7578,100.0291,27.38,73,77,3.4,TH,1715034594
385,westport,41.1415,-73.3579,23.16,80,40,3.09,US,1715034538
386,touros,-5.1989,-35.4608,26.59,87,56,4.29,BR,1715034598
387,sechura,-5.5569,-80.8222,25.81,59,53,6.84,PE,1715034600
388,altamira,-3.2033,-52.2064,24.26,97,100,0.94,BR,1715034602
389,sarukhan,40.2905,45.1306,6.21,87,100,2.43,AM,1715034605
390,talcahuano,-36.7167,-73.1167,11.82,94,75,11.83,CL,1715034537
391,wynyard,-41.0,145.7167,11.97,81,75,1.31,AU,1715034611
392,mutuali,-14.8706,37.0044,19.16,83,60,1.76,MZ,1715034614
393,manga,11.6636,-1.0731,31.99,43,97,3.16,BF,1715034616
394,maintirano,-18.0667,44.0167,24.13,80,0,3.83,MG,1715034618
395,rongelap,11.1635,166.8941,28.12,76,74,8.75,MH,1715034620
396,nanakuli,21.3906,-158.1547,26.97,63,75,6.69,US,1715034622
397,bellampalli,19.0558,79.493,31.35,50,47,5.05,IN,1715034624
398,jose pedro varela,-33.45,-54.5333,19.51,99,100,2.92,UY,1715034627
399,puerto ayacucho,5.6639,-67.6236,26.58,87,100,2.05,VE,1715034629
400,sur,22.5667,59.5289,32.11,58,12,4.68,OM,1715034631
401,nahiyat ash shinafiyah,31.5874,44.6602,25.03,41,6,1.63,IQ,1715034633
402,keflavik,64.0049,-22.5624,4.95,93,75,6.69,IS,1715034635
403,heroica caborca,30.7167,-112.15,28.8,13,2,7.35,MX,1715034637
404,waingapu,-9.6567,120.2641,25.83,82,81,2.15,ID,1715034639
405,zaozersk,69.4005,32.4476,-4.49,73,100,4.69,RU,1715034641
406,san ignacio de velasco,-16.3667,-60.95,26.11,68,70,1.99,BO,1715034644
407,floro,61.5996,5.0328,13.46,93,100,0.0,NO,1715034646
408,st. john's,47.5649,-52.7093,8.66,60,100,6.17,CA,1715034606
409,wenzhou,27.9994,120.6668,19.82,87,100,0.32,CN,1715034461
410,north peoria,40.7175,-89.5843,23.6,73,100,2.57,US,1715034652
411,benguela,-12.5763,13.4055,24.71,84,21,2.11,AO,1715034654
412,al lagowa,11.4,29.1333,30.3,9,0,3.48,SD,1715034656
413,yermentau,51.6214,73.1069,6.29,58,100,3.36,KZ,1715034658
414,ziro,27.6333,93.8333,10.83,95,100,1.16,IN,1715034663
415,smithers,54.7804,-127.1743,10.18,43,75,2.57,CA,1715034665
416,pedernales,18.0384,-71.744,28.75,75,0,0.67,DO,1715034667
417,sinabang,2.4803,96.3801,25.72,92,100,2.13,ID,1715034669
418,happy valley-goose bay,53.3168,-60.3315,12.17,47,75,2.57,CA,1715034609
419,namibe,-15.1961,12.1522,22.86,70,2,2.51,AO,1715034673
420,gandai,21.6667,81.1,28.64,42,63,3.15,IN,1715034675
421,mytilene,39.11,26.5547,17.17,64,0,0.45,GR,1715034678
422,puerto deseado,-47.7503,-65.8938,4.06,59,26,4.73,AR,1715034680
423,labrador city,52.9463,-66.9114,6.95,75,75,8.23,CA,1715034444
424,ambon,-3.6954,128.1814,27.15,95,40,1.03,ID,1715034684
425,zaragoza,41.6561,-0.8773,15.57,53,0,5.14,ES,1715034686
426,el haouaria,37.05,11.0144,19.01,82,98,5.9,TN,1715034688
427,jayapura,-2.5333,140.7,26.66,90,100,0.98,ID,1715034690
428,zholymbet,51.7433,71.7122,7.48,58,100,4.02,KZ,1715034693
429,tsiombe,-25.3,45.4833,20.3,71,0,3.41,MG,1715034695
430,bismarck,46.8083,-100.7837,15.91,87,100,13.89,US,1715034448
431,gulabpura,25.9,74.6667,30.67,27,61,5.19,IN,1715034699
432,turpan,42.9333,89.1667,25.51,26,82,1.37,CN,1715034701
433,kloulklubed,7.0419,134.2556,27.28,76,56,4.96,PW,1715034703
434,marka,1.7159,44.7717,27.12,86,97,4.48,SO,1715034705
435,hunchun,42.8675,130.3581,11.29,63,100,2.76,CN,1715034707
436,saint-pierre,-21.3393,55.4781,22.82,64,0,3.09,RE,1715034709
437,malango,-2.9627,119.9001,20.6,97,99,0.68,ID,1715034711
438,ar rass,25.8694,43.4973,24.4,17,0,4.04,SA,1715034714
439,sorong,-0.8833,131.25,25.08,90,100,10.0,ID,1715034716
440,khorixas,-20.3667,14.9667,21.77,31,0,0.71,NA,1715034718
441,san luis,-33.295,-66.3356,12.67,86,0,6.73,AR,1715034670
442,amuntai,-2.4177,115.2494,23.85,97,99,0.78,ID,1715034722
443,phan rang-thap cham,11.5667,108.9833,25.9,79,34,2.08,VN,1715034724
444,puerto san jose,13.9256,-90.8244,30.87,67,21,4.63,GT,1715034726
445,al hazm,16.1641,44.7769,27.45,38,0,3.66,YE,1715034728
446,mashhad,36.297,59.6062,22.08,49,0,2.06,IR,1715034731
447,bardai,11.65,7.2333,28.17,53,99,4.41,NG,1715034733
448,iskushuban,10.2837,50.23,27.45,75,82,3.5,SO,1715034735
449,al hufuf,25.3646,49.5653,28.19,54,0,2.06,SA,1715034737
450,birao,10.2849,22.7882,28.59,13,17,1.87,CF,1715034739
451,palikir - national government center,6.9248,158.1611,28.47,84,100,2.57,FM,1715034741
452,gao,16.6362,1.637,34.51,26,99,4.46,ML,1715034743
453,saldanha,-33.0117,17.9442,14.03,93,7,5.07,ZA,1715034745
454,inarajan village,13.2736,144.7484,29.33,81,100,5.43,GU,1715034750
455,lahad datu,5.0268,118.327,25.2,89,30,0.85,MY,1715034752
456,pampas,-12.4,-74.9,9.62,85,56,2.61,PE,1715034754
457,progreso,21.2833,-89.6667,40.06,81,6,7.51,MX,1715034756
458,fale old settlement,-9.3852,-171.2468,30.16,73,30,5.75,TK,1715034758
459,statesboro,32.4488,-81.7832,29.74,59,0,2.06,US,1715034760
460,santana,-0.0583,-51.1817,28.1,89,75,1.54,BR,1715034762
461,broome,42.2506,-75.833,20.21,51,0,5.14,US,1715034765
462,codajas,-3.8367,-62.0569,23.37,97,100,1.44,BR,1715034767
463,san luis de la loma,17.2706,-100.8939,30.18,53,69,3.84,MX,1715034769
464,isla mujeres,21.2311,-86.731,30.09,76,5,5.26,MX,1715034653
465,norilsk,69.3535,88.2027,-14.21,98,99,2.22,RU,1715034773
466,sarupathar,26.1984,93.8094,19.23,93,100,1.13,IN,1715034775
467,hami,42.8,93.45,23.25,24,0,7.22,CN,1715034727
468,timimoun,29.2639,0.231,29.03,8,86,4.99,DZ,1715034779
469,eirunepe,-6.6603,-69.8736,24.85,97,89,0.64,BR,1715034781
470,kattivakkam,13.2167,80.3167,32.28,81,39,7.9,IN,1715034784
471,petrolina,-9.3986,-40.5008,27.03,74,40,2.06,BR,1715034328
472,preobrazheniye,42.9019,133.9064,5.07,95,100,4.76,RU,1715034788
473,shenjiamen,29.9576,122.298,17.89,88,100,1.11,CN,1715034790
474,la mira,18.035,-102.3266,29.08,48,85,4.39,MX,1715034792
475,mgandu,-5.95,34.1333,16.38,92,31,2.68,TZ,1715034794
476,conceicao da barra,-18.5933,-39.7322,23.86,85,2,2.03,BR,1715034796
477,bezenchuk,52.982,49.4333,4.95,68,29,2.17,RU,1715034798
478,cobourg,50.2667,10.9667,13.54,93,100,0.89,DE,1715034800
479,kafr ad dawwar,31.1339,30.1284,17.26,62,0,4.53,EG,1715034803
480,willows,39.5243,-122.1936,23.03,41,43,4.1,US,1715034807
481,suphan buri,14.4742,100.1222,28.35,82,2,2.98,TH,1715034809
482,mugia,43.1041,-9.2179,11.62,86,15,2.94,ES,1715034811
483,alaghsas,17.0187,8.0168,32.44,11,64,3.43,NE,1715034813
484,sierra grande,-41.606,-65.3557,12.15,49,91,5.1,AR,1715034815
485,salalah,17.0151,54.0924,30.05,79,40,2.06,OM,1715034817
486,lichtenburg,-26.152,26.1597,14.48,27,0,2.39,ZA,1715034820
487,mejit,10.2753,170.8646,27.34,81,99,9.3,MH,1715034822
488,kourou,5.1552,-52.6478,28.03,92,100,3.09,GF,1715034605
489,kidal,18.4411,1.4078,34.25,9,95,5.05,ML,1715034828
490,grand falls-windsor,48.9332,-55.6649,5.28,86,100,0.89,CA,1715034830
491,port isabel,26.0734,-97.2086,30.05,77,100,8.75,US,1715034832
492,abong mbang,3.9833,13.1833,23.34,71,96,1.23,CM,1715034834
493,minab,27.1467,57.0801,27.3,44,0,1.95,IR,1715034837
494,kenai,60.5544,-151.2583,7.05,89,100,3.6,US,1715034839
495,gisborne,-38.6533,178.0042,12.28,76,100,6.02,NZ,1715034841
496,lucapa,-8.4192,20.7447,20.12,59,6,1.19,AO,1715034843
497,al kharijah,25.4514,30.5464,20.48,31,0,3.06,EG,1715034845
498,casper,42.8666,-106.3131,5.48,87,100,9.77,US,1715034847
499,lithgow,-33.4833,150.15,8.69,93,91,3.85,AU,1715034849
500,bethanie,-26.4833,17.15,19.86,30,0,2.05,NA,1715034851
501,poco verde,-10.7083,-38.1833,23.51,85,71,4.25,BR,1715034853
502,laurel,39.0993,-76.8483,24.09,85,75,2.06,US,1715034856
503,obo,5.3998,26.4869,26.27,49,81,0.98,CF,1715034858
504,rawson,-43.3002,-65.1023,13.41,41,75,5.27,AR,1715034860
505,tomatlan,19.9333,-105.25,28.86,46,100,3.17,MX,1715034862
506,areia branca,-4.9561,-37.1369,27.97,77,73,7.52,BR,1715034864
507,shahrak,34.1074,64.3052,11.19,46,14,0.92,AF,1715034866
508,sao felix do xingu,-6.6447,-51.995,24.91,85,5,1.25,BR,1715034868
509,karratha,-20.7377,116.8463,24.23,41,19,3.09,AU,1715034870
510,grand forks,47.9417,-97.4337,21.96,37,40,12.35,US,1715034872
511,nagqu,31.5,92.0,-0.4,68,65,2.1,CN,1715034874
512,zhanaozen,43.3,52.8,15.06,66,100,8.84,KZ,1715034877
513,sabalgarh,26.25,77.4,33.38,17,51,2.03,IN,1715034879
514,san clemente,33.427,-117.612,26.2,70,8,2.24,US,1715034881
515,uyuni,-20.4597,-66.825,11.09,22,0,4.73,BO,1715034883
516,male,4.1748,73.5089,29.97,89,75,5.66,MV,1715034885
517,holdrege,40.4403,-99.3698,19.03,81,40,4.12,US,1715034887
518,kasane,-17.8167,25.15,19.27,55,3,2.38,BW,1715034889
519,greymouth,-42.4667,171.2,9.49,52,77,2.31,NZ,1715034891
520,port macquarie,-31.4333,152.9167,15.5,65,100,4.65,AU,1715034894
521,kentville,45.0835,-64.4988,12.14,85,100,1.03,CA,1715034721
522,pontes e lacerda,-15.2261,-59.3353,26.47,58,36,1.94,BR,1715034898
523,magadan,59.5667,150.8,-0.26,84,81,1.62,RU,1715034900
524,morganton,35.7454,-81.6848,25.78,79,40,0.45,US,1715034673
525,mulayjah,27.271,48.4242,29.0,21,0,2.63,SA,1715034904
526,lodja,-3.4833,23.4333,23.06,65,9,0.86,CD,1715034906
527,morondava,-20.2833,44.2833,23.05,58,0,3.32,MG,1715034908
528,lhokseumawe,5.1801,97.1507,26.09,86,78,2.17,ID,1715034911
529,tillaberi,14.2117,1.4531,31.57,38,100,6.05,NE,1715034913
530,sipalay,9.75,122.5,27.59,73,16,2.26,PH,1715034915
531,bandipura,34.4167,74.65,12.42,62,2,3.58,IN,1715034917
532,duong dong,10.2167,103.9667,27.0,89,20,1.03,VN,1715034919
533,filingue,14.3521,3.3168,33.07,33,89,5.55,NE,1715034921
534,ghadamis,30.1337,9.5007,28.67,20,80,8.06,LY,1715034923
535,tarakan,3.3,117.6333,26.82,83,53,2.67,ID,1715034925
536,mokhsogollokh,61.4681,128.9203,8.46,74,99,4.45,RU,1715034930
537,chengde,40.9725,117.9361,13.48,39,100,1.86,CN,1715034932
538,bol,13.4586,14.7147,29.36,42,31,5.04,TD,1715034934
539,kolokani,13.5728,-8.0339,32.01,11,3,2.11,ML,1715034936
540,oamaru,-45.0784,170.9801,9.65,65,91,2.87,NZ,1715034938
541,colares,38.7992,-9.4469,14.86,83,2,5.36,PT,1715034940
542,severobaykal'sk,55.65,109.3167,5.84,87,100,3.15,RU,1715034942
543,cabo san lucas,22.8909,-109.9124,28.17,53,100,4.63,MX,1715034928
544,weyburn,49.6668,-103.8511,11.12,93,100,11.32,CA,1715034947
545,gornopravdinsk,60.05,69.9,4.54,76,100,4.24,RU,1715034949
546,jackson,42.4165,-122.8345,14.93,51,100,3.6,US,1715034951
547,nema,57.5067,50.5011,-2.1,93,19,2.42,RU,1715034953
548,zhytkavichy,52.2168,27.8561,12.01,92,100,3.2,BY,1715034955
549,sao vicente,-23.9631,-46.3919,33.1,26,0,1.05,BR,1715034957
550,al majaridah,19.1236,41.9111,29.66,50,0,1.37,SA,1715034959
551,as sulayyil,20.4607,45.5779,30.14,19,5,4.75,SA,1715034961
552,shingu,33.7333,135.9833,19.49,98,100,4.71,JP,1715034964
553,liezen,47.5667,14.2333,9.79,98,98,1.55,AT,1715034966
554,mitu,1.1983,-70.1733,25.45,85,100,0.45,CO,1715034968
555,ulladulla,-35.35,150.4667,14.7,81,96,2.62,AU,1715034970
556,illizi,26.4833,8.4667,32.56,21,70,10.05,DZ,1715034972
557,kariba,-16.5167,28.8,21.07,49,0,2.33,ZW,1715034974
558,dul'durga,50.6761,113.5931,12.93,35,22,1.98,RU,1715034976
559,hilo,19.7297,-155.09,24.58,89,100,3.6,US,1715034706
560,talara,-4.5772,-81.2719,25.42,69,0,7.2,PE,1715034981
561,mirny,62.5353,113.9611,2.91,99,100,6.71,RU,1715034983
562,richland center,43.3347,-90.3868,23.99,69,34,5.28,US,1715034985
563,antigonish,45.6169,-61.9986,11.01,93,100,1.34,CA,1715034987
564,gagliano del capo,39.8442,18.3695,15.68,88,33,4.63,IT,1715034989
565,darab,28.7519,54.5444,22.81,41,90,0.96,IR,1715034991
566,garissa,-0.4536,39.6401,25.59,81,67,6.63,KE,1715034993
567,kapuskasing,49.4169,-82.4331,17.0,36,75,5.14,CA,1715034997
568,teknaf,20.8624,92.3058,26.82,83,100,2.27,BD,1715035000
569,chui,-33.6971,-53.4616,19.42,99,100,2.55,UY,1715035002
570,tianchang,37.9981,114.0156,16.78,58,0,1.4,CN,1715035004
571,taulaga,-11.0553,-171.0883,29.7,76,65,4.84,AS,1715035006
572,luanda,-8.8368,13.2343,27.0,92,40,2.57,AO,1715034800
573,kovalam,8.3667,76.9967,29.05,74,20,2.06,IN,1715035010
574,ratnagiri,16.9833,73.3,26.08,86,0,3.54,IN,1715035012
575,queenstown,-31.8976,26.8753,14.97,39,0,2.31,ZA,1715035014
576,ulety,51.3572,112.4849,12.03,41,37,0.98,RU,1715035016
577,teaca,46.9167,24.5167,12.66,83,69,1.45,RO,1715035019
578,sao miguel,-5.4667,-35.3667,27.43,87,52,4.85,BR,1715035021
579,zhoushan,30.0108,122.2047,17.87,89,100,1.26,CN,1715035023
580,mersa matruh,31.3525,27.2453,16.11,72,0,3.09,EG,1715035025
581,singoli,24.9667,75.3,30.38,28,5,2.96,IN,1715035027
582,changji,44.0167,87.3167,19.44,48,0,4.0,CN,1715035029
583,rawah,34.4816,41.9093,18.91,50,10,3.74,IQ,1715035031
584,aksu,41.1231,80.2644,19.53,34,96,3.8,CN,1715035034
585,capelinha,-17.6914,-42.5158,16.99,98,39,1.69,BR,1715035036
